$GPGGA,210237.000,4054.8924,N,07354.1641,W,1,08,0.99,41.9,M,-34.2,M,,*62
$GPRMC,210237.000,A,4054.8924,N,07354.1641,W,0.28,326.10,071220,,,A*76
5.4100,1001.5822,46.4215,41.9453

$GPGGA,210245.000,4054.8919,N,07354.1661,W,1,08,1.06,41.9,M,-34.2,M,,*6C
$GPRMC,210245.000,A,4054.8919,N,07354.1661,W,0.07,321.54,071220,,,A*75
5.4100,1001.6633,45.7392,41.9111

$GPGGA,210253.000,4054.8906,N,07354.1669,W,1,08,1.06,41.9,M,-34.2,M,,*6D
$GPRMC,210253.000,A,4054.8906,N,07354.1669,W,0.14,43.51,071220,,,A*44
5.3400,1001.6317,46.0053,42.3389

$GPGGA,210301.000,4054.8909,N,07354.1662,W,1,08,1.06,41.9,M,-34.2,M,,*6F
$GPRMC,210301.000,A,4054.8909,N,07354.1662,W,0.19,128.98,071220,,,A*72
5.3500,1001.6481,45.8675,42.5459

$GPGGA,210309.000,4054.8923,N,07354.1654,W,1,08,1.06,41.8,M,-34.2,M,,*6B
$GPRMC,210309.000,A,4054.8923,N,07354.1654,W,0.28,4.12,071220,,,A*78
5.2800,1001.6164,46.1341,42.6406

$GPGGA,210317.000,4054.8935,N,07354.1651,W,1,08,1.06,41.7,M,-34.2,M,,*69
$GPRMC,210317.000,A,4054.8935,N,07354.1651,W,0.02,110.30,071220,,,A*79
5.2500,1001.6301,46.0185,42.4902

$GPGGA,210325.000,4054.8939,N,07354.1659,W,1,07,1.06,41.8,M,-34.2,M,,*6C
$GPRMC,210325.000,A,4054.8939,N,07354.1659,W,0.02,348.91,071220,,,A*78
5.1000,1001.6509,45.8437,42.5322

$GPGGA,210333.000,4054.8938,N,07354.1664,W,1,08,1.09,41.8,M,-34.2,M,,*64
$GPRMC,210333.000,A,4054.8938,N,07354.1664,W,0.02,313.29,071220,,,A*7D
5.2000,1001.7037,45.3993,41.7412

$GPGGA,210341.000,4054.8938,N,07354.1662,W,1,08,1.06,41.8,M,-34.2,M,,*68
$GPRMC,210341.000,A,4054.8938,N,07354.1662,W,0.03,312.44,071220,,,A*75
5.0100,1001.5869,46.3826,41.7461

$GPGGA,210349.000,4054.8938,N,07354.1663,W,1,08,1.09,41.8,M,-34.2,M,,*6E
$GPRMC,210349.000,A,4054.8938,N,07354.1663,W,0.04,233.71,071220,,,A*7F
5.0100,1001.5599,46.6089,41.9980

$GPGGA,210357.000,4054.8936,N,07354.1665,W,1,08,1.09,42.1,M,-34.2,M,,*63
$GPRMC,210357.000,A,4054.8936,N,07354.1665,W,0.01,330.45,071220,,,A*78
5.0300,1001.6462,45.8831,41.9883

$GPGGA,210405.000,4054.8935,N,07354.1666,W,1,07,1.09,42.5,M,-34.2,M,,*68
$GPRMC,210405.000,A,4054.8935,N,07354.1666,W,0.02,231.49,071220,,,A*77
5.0600,1001.6216,46.0902,41.8428

$GPGGA,210413.000,4054.8935,N,07354.1664,W,1,08,1.09,42.8,M,-34.2,M,,*6F
$GPRMC,210413.000,A,4054.8935,N,07354.1664,W,0.02,55.73,071220,,,A*4B
5.1200,1001.6021,46.2548,41.8252

$GPGGA,210421.000,4054.8929,N,07354.1657,W,1,08,1.09,42.7,M,-34.2,M,,*6C
$GPRMC,210421.000,A,4054.8929,N,07354.1657,W,0.10,135.97,071220,,,A*79
5.2400,1001.4708,47.3595,43.2324

$GPGGA,210429.000,4054.8932,N,07354.1652,W,1,08,1.09,42.6,M,-34.2,M,,*6A
$GPRMC,210429.000,A,4054.8932,N,07354.1652,W,0.07,45.88,071220,,,A*40
5.2800,1001.6164,46.1341,42.6299

$GPGGA,210437.000,4054.8932,N,07354.1647,W,1,08,1.06,43.4,M,-34.2,M,,*6D
$GPRMC,210437.000,A,4054.8932,N,07354.1647,W,0.42,26.33,071220,,,A*4F
5.4400,1001.5767,46.4685,41.6621

$GPGGA,210445.000,4054.8937,N,07354.1640,W,1,07,1.06,43.5,M,-34.2,M,,*64
$GPRMC,210445.000,A,4054.8937,N,07354.1640,W,0.80,35.27,071220,,,A*41
5.5100,1001.5812,46.4301,41.1309

$GPGGA,210453.000,4054.8949,N,07354.1638,W,1,08,1.09,43.4,M,-34.2,M,,*64
$GPRMC,210453.000,A,4054.8949,N,07354.1638,W,0.25,355.07,071220,,,A*78
5.5200,1001.5352,46.8175,41.0859

$GPGGA,210501.000,4054.8948,N,07354.1645,W,1,08,1.06,44.1,M,-34.2,M,,*64
$GPRMC,210501.000,A,4054.8948,N,07354.1645,W,0.01,74.81,071220,,,A*4D
5.6400,1001.5389,46.7862,41.2803

$GPGGA,210509.000,4054.8949,N,07354.1646,W,1,08,1.00,45.2,M,-34.2,M,,*6A
$GPRMC,210509.000,A,4054.8949,N,07354.1646,W,0.01,41.24,071220,,,A*4E
5.6200,1001.5338,46.8296,40.5801

$GPGGA,210517.000,4054.8941,N,07354.1652,W,1,08,1.06,45.4,M,-34.2,M,,*68
$GPRMC,210517.000,A,4054.8941,N,07354.1652,W,0.75,202.80,071220,,,A*74
5.6700,1001.5412,46.7665,40.8252

$GPGGA,210525.000,4054.8922,N,07354.1662,W,1,07,1.06,45.1,M,-34.2,M,,*65
$GPRMC,210525.000,A,4054.8922,N,07354.1662,W,0.63,222.25,071220,,,A*79
5.8600,1001.5496,46.6958,40.7520

$GPGGA,210533.000,4054.8930,N,07354.1701,W,1,08,1.00,44.7,M,-34.2,M,,*6B
$GPRMC,210533.000,A,4054.8930,N,07354.1701,W,1.60,283.55,071220,,,A*77
6.0500,1001.5847,46.4008,41.4688

$GPGGA,210541.000,4054.8950,N,07354.1711,W,1,08,1.09,43.9,M,-34.2,M,,*69
$GPRMC,210541.000,A,4054.8950,N,07354.1711,W,0.29,19.35,071220,,,A*4E
5.8300,1001.6638,45.7351,40.7949

$GPGGA,210549.000,4054.8954,N,07354.1704,W,1,07,1.18,43.7,M,-34.2,M,,*60
$GPRMC,210549.000,A,4054.8954,N,07354.1704,W,0.20,14.31,071220,,,A*46
5.7300,1001.6298,46.0210,40.8311

$GPGGA,210557.000,4054.8962,N,07354.1691,W,1,07,1.18,43.4,M,-34.2,M,,*64
$GPRMC,210557.000,A,4054.8962,N,07354.1691,W,0.02,47.38,071220,,,A*4E
5.6100,1001.6068,46.2144,41.7812

$GPGGA,210605.000,4054.8968,N,07354.1681,W,1,07,1.20,43.1,M,-34.2,M,,*65
$GPRMC,210605.000,A,4054.8968,N,07354.1681,W,0.01,149.73,071220,,,A*72
5.6400,1001.5931,46.3296,41.0742

$GPGGA,210613.000,4054.8973,N,07354.1677,W,1,08,1.06,43.3,M,-34.2,M,,*68
$GPRMC,210613.000,A,4054.8973,N,07354.1677,W,0.02,354.36,071220,,,A*7A
5.5700,1001.5886,46.3675,41.8457

$GPGGA,210621.000,4054.8977,N,07354.1676,W,1,08,1.06,43.5,M,-34.2,M,,*6A
$GPRMC,210621.000,A,4054.8977,N,07354.1676,W,0.01,12.47,071220,,,A*4A
5.4300,1001.6686,45.6947,41.9932

$GPGGA,210629.000,4054.8988,N,07354.1675,W,1,07,1.06,44.2,M,-34.2,M,,*6E
$GPRMC,210629.000,A,4054.8988,N,07354.1675,W,0.01,19.44,071220,,,A*49
5.3800,1001.5963,46.3033,42.0791

$GPGGA,210637.000,4054.8998,N,07354.1677,W,1,07,1.06,45.4,M,-34.2,M,,*65
$GPRMC,210637.000,A,4054.8998,N,07354.1677,W,0.01,247.21,071220,,,A*7F
5.3500,1001.6292,46.0265,42.0537

$GPGGA,210645.000,4054.9000,N,07354.1679,W,1,07,1.06,46.0,M,-34.2,M,,*60
$GPRMC,210645.000,A,4054.9000,N,07354.1679,W,0.03,197.11,071220,,,A*72
5.2400,1001.6602,45.7659,41.3682

$GPGGA,210653.000,4054.8997,N,07354.1679,W,1,07,1.06,46.0,M,-34.2,M,,*61
$GPRMC,210653.000,A,4054.8997,N,07354.1679,W,0.01,17.95,071220,,,A*44
5.1300,1001.6450,45.8932,41.5293

$GPGGA,210701.000,4054.8989,N,07354.1681,W,1,07,1.05,46.4,M,-34.2,M,,*68
$GPRMC,210701.000,A,4054.8989,N,07354.1681,W,0.01,49.94,071220,,,A*40
5.0900,1001.6157,46.1397,41.5713

$GPGGA,210709.000,4054.8982,N,07354.1681,W,1,07,1.05,47.5,M,-34.2,M,,*6B
$GPRMC,210709.000,A,4054.8982,N,07354.1681,W,0.01,190.37,071220,,,A*7F
5.0600,1001.6216,46.0902,41.8770

$GPGGA,210717.000,4054.8978,N,07354.1674,W,2,08,1.00,47.6,M,-34.2,M,0000,0000*61
$GPRMC,210717.000,A,4054.8978,N,07354.1674,W,0.06,127.73,071220,,,D*71
5.0100,1001.5869,46.3826,41.8721

$GPGGA,210725.000,4054.8978,N,07354.1667,W,2,08,1.00,47.1,M,-34.2,M,0000,0000*65
$GPRMC,210725.000,A,4054.8978,N,07354.1667,W,0.53,355.52,071220,,,D*76
5.0000,1001.5980,46.2892,41.9395

$GPGGA,210733.000,4054.8978,N,07354.1661,W,2,08,1.09,46.7,M,-34.2,M,0000,0000*6A
$GPRMC,210733.000,A,4054.8978,N,07354.1661,W,0.06,238.06,071220,,,D*7C
4.9700,1001.6306,46.0149,42.2676

$GPGGA,210741.000,4054.8972,N,07354.1656,W,2,08,1.09,45.8,M,-34.2,M,0000,0000*6D
$GPRMC,210741.000,A,4054.8972,N,07354.1656,W,0.06,172.53,071220,,,D*7A
4.8500,1001.6534,45.8225,42.2568

$GPGGA,210749.000,4054.8971,N,07354.1653,W,2,08,1.01,45.1,M,-34.2,M,0000,0000*62
$GPRMC,210749.000,A,4054.8971,N,07354.1653,W,0.01,116.89,071220,,,D*76
4.8200,1001.5593,46.6144,42.2656

$GPGGA,210757.000,4054.8965,N,07354.1650,W,2,08,1.09,44.7,M,-34.2,M,0000,0000*64
$GPRMC,210757.000,A,4054.8965,N,07354.1650,W,0.01,321.74,071220,,,D*7B
4.7800,1001.6217,46.0892,42.3066

$GPGGA,210805.000,4054.8955,N,07354.1652,W,2,08,1.01,45.3,M,-34.2,M,0000,0000*60
$GPRMC,210805.000,A,4054.8955,N,07354.1652,W,0.28,173.05,071220,,,D*7A
5.0000,1001.6058,46.2235,49.1104

$GPGGA,210813.000,4054.8921,N,07354.1678,W,2,08,1.09,42.0,M,-34.2,M,0000,0000*60
$GPRMC,210813.000,A,4054.8921,N,07354.1678,W,0.79,223.83,071220,,,D*7A
5.3100,1001.6376,45.9553,51.8271

$GPGGA,210821.000,4054.8906,N,07354.1698,W,2,08,1.00,41.3,M,-34.2,M,0000,0000*63
$GPRMC,210821.000,A,4054.8906,N,07354.1698,W,0.82,223.09,071220,,,D*76
5.2300,1001.6711,45.6740,44.6709

$GPGGA,210829.000,4054.8884,N,07354.1727,W,2,08,1.00,39.0,M,-34.2,M,0000,0000*69
$GPRMC,210829.000,A,4054.8884,N,07354.1727,W,0.91,231.22,071220,,,D*78
5.3500,1001.7914,44.6620,44.2500

$GPGGA,210837.000,4054.8884,N,07354.1763,W,2,08,1.00,37.5,M,-34.2,M,0000,0000*6D
$GPRMC,210837.000,A,4054.8884,N,07354.1763,W,0.88,324.56,071220,,,D*79
5.2500,1001.8928,43.8091,43.1875

$GPGGA,210845.000,4054.8909,N,07354.1775,W,2,08,1.10,36.1,M,-34.2,M,0000,0000*6F
$GPRMC,210845.000,A,4054.8909,N,07354.1775,W,1.75,3.92,071220,,,D*72
5.1400,1001.9398,43.4132,42.5596

$GPGGA,210853.000,4054.8943,N,07354.1776,W,2,08,1.10,36.0,M,-34.2,M,0000,0000*64
$GPRMC,210853.000,A,4054.8943,N,07354.1776,W,1.73,6.43,071220,,,D*77
5.2500,1002.0009,42.8992,43.2441

$GPGGA,210901.000,4054.8968,N,07354.1757,W,2,07,1.10,34.7,M,-34.2,M,0000,0000*62
$GPRMC,210901.000,A,4054.8968,N,07354.1757,W,1.28,8.60,071220,,,D*7A
5.2100,1002.1256,41.8506,43.1719

$GPGGA,210909.000,4054.8980,N,07354.1730,W,2,07,1.21,33.7,M,-34.2,M,0000,0000*68
$GPRMC,210909.000,A,4054.8980,N,07354.1730,W,1.03,20.03,071220,,,D*43
5.2600,1002.0168,42.7654,42.9707

$GPGGA,210917.000,4054.9011,N,07354.1700,W,2,08,1.10,32.0,M,-34.2,M,0000,0000*6F
$GPRMC,210917.000,A,4054.9011,N,07354.1700,W,2.48,359.77,071220,,,D*7D
5.2900,1002.1003,42.0631,43.0098

$GPGGA,210925.000,4054.9070,N,07354.1730,W,2,07,1.17,31.6,M,-34.2,M,0000,0000*67
$GPRMC,210925.000,A,4054.9070,N,07354.1730,W,1.37,300.24,071220,,,D*79
5.2300,1002.1039,42.0334,42.6143

$GPGGA,210933.000,4054.9100,N,07354.1776,W,2,07,1.05,31.6,M,-34.2,M,0000,0000*67
$GPRMC,210933.000,A,4054.9100,N,07354.1776,W,0.79,334.51,071220,,,D*74
4.9200,1002.0906,42.1449,42.9365

$GPGGA,210941.000,4054.9145,N,07354.1796,W,2,07,1.05,31.7,M,-34.2,M,0000,0000*6C
$GPRMC,210941.000,A,4054.9145,N,07354.1796,W,1.35,314.51,071220,,,D*75
4.7700,1002.1462,41.6769,42.8076

$GPGGA,210949.000,4054.9186,N,07354.1853,W,2,08,1.00,32.1,M,-34.2,M,0000,0000*62
$GPRMC,210949.000,A,4054.9186,N,07354.1853,W,1.60,285.95,071220,,,D*75
4.6900,1002.1522,41.6275,42.9941

$GPGGA,210957.000,4054.9205,N,07354.1907,W,2,08,1.05,31.5,M,-34.2,M,0000,0000*67
$GPRMC,210957.000,A,4054.9205,N,07354.1907,W,1.78,296.32,071220,,,D*74
4.5900,1002.0531,42.4605,43.4746

$GPGGA,211005.000,4054.9212,N,07354.1961,W,2,07,1.05,29.9,M,-34.2,M,0000,0000*64
$GPRMC,211005.000,A,4054.9212,N,07354.1961,W,1.79,286.28,071220,,,D*76
4.6900,1002.1063,42.0132,43.2686

$GPGGA,211013.000,4054.9202,N,07354.2018,W,2,08,1.05,28.1,M,-34.2,M,0000,0000*60
$GPRMC,211013.000,A,4054.9202,N,07354.2018,W,1.85,267.10,071220,,,D*73
4.6400,1002.0715,42.3055,42.8291

$GPGGA,211021.000,4054.9204,N,07354.2076,W,2,07,1.05,27.0,M,-34.2,M,0000,0000*6E
$GPRMC,211021.000,A,4054.9204,N,07354.2076,W,1.51,276.25,071220,,,D*73
4.7100,1001.9494,43.3324,43.2021

$GPGGA,211029.000,4054.9223,N,07354.2113,W,2,08,1.00,26.0,M,-34.2,M,0000,0000*6A
$GPRMC,211029.000,A,4054.9223,N,07354.2113,W,1.97,314.88,071220,,,D*74
4.6000,1001.8989,43.7571,43.1221

$GPGGA,211037.000,4054.9251,N,07354.2160,W,2,08,1.00,25.3,M,-34.2,M,0000,0000*64
$GPRMC,211037.000,A,4054.9251,N,07354.2160,W,2.01,313.37,071220,,,D*75
4.6000,1001.8989,43.7571,44.0117

$GPGGA,211045.000,4054.9246,N,07354.2204,W,2,08,1.05,25.0,M,-34.2,M,0000,0000*60
$GPRMC,211045.000,A,4054.9246,N,07354.2204,W,0.86,289.37,071220,,,D*78
4.5000,1001.8809,43.9086,43.8428

$GPGGA,211053.000,4054.9240,N,07354.2246,W,2,08,1.00,24.3,M,-34.2,M,0000,0000*60
$GPRMC,211053.000,A,4054.9240,N,07354.2246,W,1.33,272.63,071220,,,D*75
4.5500,1001.6562,45.7988,44.0635

$GPGGA,211101.000,4054.9210,N,07354.2263,W,2,08,1.00,22.9,M,-34.2,M,0000,0000*68
$GPRMC,211101.000,A,4054.9210,N,07354.2263,W,1.17,196.22,071220,,,D*7B
4.5300,1001.5430,46.7518,45.0654

$GPGGA,211109.000,4054.9177,N,07354.2232,W,2,08,1.00,22.8,M,-34.2,M,0000,0000*67
$GPRMC,211109.000,A,4054.9177,N,07354.2232,W,1.50,116.52,071220,,,D*79
4.4900,1001.5058,47.0645,45.3350

$GPGGA,211117.000,4054.9145,N,07354.2192,W,2,08,1.00,23.1,M,-34.2,M,0000,0000*68
$GPRMC,211117.000,A,4054.9145,N,07354.2192,W,1.87,138.58,071220,,,D*72
4.3900,1001.5497,46.6953,45.2119

$GPGGA,211125.000,4054.9118,N,07354.2157,W,2,08,1.00,23.1,M,-34.2,M,0000,0000*68
$GPRMC,211125.000,A,4054.9118,N,07354.2157,W,1.40,141.08,071220,,,D*72
4.4200,1001.5820,46.4235,44.9980

$GPGGA,211133.000,4054.9080,N,07354.2150,W,2,08,1.00,22.9,M,-34.2,M,0000,0000*61
$GPRMC,211133.000,A,4054.9080,N,07354.2150,W,1.68,185.06,071220,,,D*7E
4.4700,1001.6433,45.9074,45.1289

$GPGGA,211141.000,4054.9045,N,07354.2160,W,2,08,1.00,22.4,M,-34.2,M,0000,0000*63
$GPRMC,211141.000,A,4054.9045,N,07354.2160,W,1.63,187.96,071220,,,D*71
4.4600,1001.5922,46.3377,44.7959

$GPGGA,211149.000,4054.9010,N,07354.2161,W,2,08,1.00,21.7,M,-34.2,M,0000,0000*6A
$GPRMC,211149.000,A,4054.9010,N,07354.2161,W,0.76,156.18,071220,,,D*77
4.4500,1001.5492,46.6993,44.2363

$GPGGA,211157.000,4054.8994,N,07354.2166,W,2,08,1.00,21.8,M,-34.2,M,0000,0000*69
$GPRMC,211157.000,A,4054.8994,N,07354.2166,W,1.02,181.52,071220,,,D*7D
4.4500,1001.5492,46.6993,44.2930

$GPGGA,211205.000,4054.8969,N,07354.2176,W,2,08,1.00,22.3,M,-34.2,M,0000,0000*66
$GPRMC,211205.000,A,4054.8969,N,07354.2176,W,1.18,188.94,071220,,,D*72
4.5300,1001.5511,46.6836,45.6934

$GPGGA,211213.000,4054.8927,N,07354.2180,W,2,08,1.00,22.6,M,-34.2,M,0000,0000*67
$GPRMC,211213.000,A,4054.8927,N,07354.2180,W,1.40,205.31,071220,,,D*72
4.8400,1001.6183,46.1180,50.5859

$GPGGA,211221.000,4054.8898,N,07354.2197,W,2,08,1.00,23.2,M,-34.2,M,0000,0000*60
$GPRMC,211221.000,A,4054.8898,N,07354.2197,W,1.25,203.97,071220,,,D*79
5.5600,1001.6345,45.9816,65.8760

$GPGGA,211229.000,4054.8861,N,07354.2209,W,2,08,1.00,24.0,M,-34.2,M,0000,0000*6F
$GPRMC,211229.000,A,4054.8861,N,07354.2209,W,1.11,222.21,071220,,,D*7A
6.1000,1001.6301,46.0185,72.5967

$GPGGA,211237.000,4054.8838,N,07354.2243,W,2,08,1.00,24.1,M,-34.2,M,0000,0000*63
$GPRMC,211237.000,A,4054.8838,N,07354.2243,W,0.75,236.08,071220,,,D*7A
6.7000,1001.6204,46.1008,74.2676

$GPGGA,211245.000,4054.8837,N,07354.2261,W,2,08,1.00,23.8,M,-34.2,M,0000,0000*67
$GPRMC,211245.000,A,4054.8837,N,07354.2261,W,0.04,294.66,071220,,,D*76
6.9200,1001.6217,46.0892,74.1572

$GPGGA,211253.000,4054.8837,N,07354.2261,W,2,08,1.00,23.9,M,-34.2,M,0000,0000*61
$GPRMC,211253.000,A,4054.8837,N,07354.2261,W,0.33,344.15,071220,,,D*7D
7.0400,1001.5977,46.2917,70.5352

$GPGGA,211301.000,4054.8837,N,07354.2246,W,2,08,1.00,24.1,M,-34.2,M,0000,0000*6D
$GPRMC,211301.000,A,4054.8837,N,07354.2246,W,0.29,117.95,071220,,,D*79
7.8200,1001.6498,45.8528,75.4160

$GPGGA,211309.000,4054.8829,N,07354.2248,W,2,08,1.00,23.9,M,-34.2,M,0000,0000*6B
$GPRMC,211309.000,A,4054.8829,N,07354.2248,W,0.17,143.99,071220,,,D*70
8.2300,1001.6566,45.7962,75.0986

$GPGGA,211317.000,4054.8817,N,07354.2259,W,2,08,1.00,23.9,M,-34.2,M,0000,0000*69
$GPRMC,211317.000,A,4054.8817,N,07354.2259,W,1.15,220.54,071220,,,D*76
8.6500,1001.6250,46.0614,76.3145

$GPGGA,211325.000,4054.8787,N,07354.2243,W,2,08,1.00,22.8,M,-34.2,M,0000,0000*65
$GPRMC,211325.000,A,4054.8787,N,07354.2243,W,1.09,176.93,071220,,,D*7C
8.9900,1001.6461,45.8841,73.6299

$GPGGA,211333.000,4054.8732,N,07354.2234,W,2,08,1.00,22.3,M,-34.2,M,0000,0000*67
$GPRMC,211333.000,A,4054.8732,N,07354.2234,W,1.52,191.20,071220,,,D*7A
9.2400,1001.5302,46.8599,69.3242

$GPGGA,211341.000,4054.8660,N,07354.2204,W,2,08,1.00,22.0,M,-34.2,M,0000,0000*64
$GPRMC,211341.000,A,4054.8660,N,07354.2204,W,1.97,175.15,071220,,,D*7F
9.6100,1001.4977,47.1327,65.3711

$GPGGA,211349.000,4054.8627,N,07354.2211,W,2,08,1.00,23.1,M,-34.2,M,0000,0000*6B
$GPRMC,211349.000,A,4054.8627,N,07354.2211,W,1.39,210.50,071220,,,D*75
9.8500,1001.5206,46.9397,60.9482

$GPGGA,211357.000,4054.8606,N,07354.2237,W,2,08,1.00,22.8,M,-34.2,M,0000,0000*6B
$GPRMC,211357.000,A,4054.8606,N,07354.2237,W,0.53,201.41,071220,,,D*70
10.1000,1001.4315,47.6903,59.6953

$GPGGA,211405.000,4054.8584,N,07354.2261,W,2,08,1.00,22.5,M,-34.2,M,0000,0000*6C
$GPRMC,211405.000,A,4054.8584,N,07354.2261,W,1.35,198.92,071220,,,D*76
10.3800,1001.4088,47.8813,59.3301

$GPGGA,211413.000,4054.8541,N,07354.2270,W,2,08,1.00,21.7,M,-34.2,M,0000,0000*63
$GPRMC,211413.000,A,4054.8541,N,07354.2270,W,1.28,202.20,071220,,,D*7D
9.8500,1001.3844,48.0863,46.6982

$GPGGA,211421.000,4054.8494,N,07354.2299,W,2,08,1.00,23.1,M,-34.2,M,0000,0000*68
$GPRMC,211421.000,A,4054.8494,N,07354.2299,W,0.60,153.59,071220,,,D*76
9.8300,1001.3250,48.5860,45.6572

$GPGGA,211429.000,4054.8479,N,07354.2305,W,2,08,1.00,24.1,M,-34.2,M,0000,0000*60
$GPRMC,211429.000,A,4054.8479,N,07354.2305,W,0.90,206.87,071220,,,D*76
9.7700,1001.3380,48.4768,45.2695

$GPGGA,211437.000,4054.8470,N,07354.2314,W,2,08,1.00,25.2,M,-34.2,M,0000,0000*64
$GPRMC,211437.000,A,4054.8470,N,07354.2314,W,0.15,8.50,071220,,,D*7B
9.6000,1001.2558,49.1684,44.1895

$GPGGA,211445.000,4054.8474,N,07354.2318,W,2,08,1.00,25.3,M,-34.2,M,0000,0000*68
$GPRMC,211445.000,A,4054.8474,N,07354.2318,W,0.13,13.73,071220,,,D*4B
9.5000,1001.2670,49.0740,44.5967

$GPGGA,211453.000,4054.8475,N,07354.2318,W,2,08,1.03,25.3,M,-34.2,M,0000,0000*6D
$GPRMC,211453.000,A,4054.8475,N,07354.2318,W,0.06,58.25,071220,,,D*45
9.4000,1001.2891,48.8886,43.2930

$GPGGA,211501.000,4054.8475,N,07354.2318,W,2,08,1.03,25.3,M,-34.2,M,0000,0000*6B
$GPRMC,211501.000,A,4054.8475,N,07354.2318,W,0.04,24.09,071220,,,D*44
9.3000,1001.2374,49.3235,43.5596

$GPGGA,211509.000,4054.8477,N,07354.2317,W,2,08,1.03,25.3,M,-34.2,M,0000,0000*6E
$GPRMC,211509.000,A,4054.8477,N,07354.2317,W,0.14,24.31,071220,,,D*4B
8.9600,1001.2907,48.8744,40.5840

$GPGGA,211517.000,4054.8481,N,07354.2314,W,2,07,1.44,25.2,M,-34.2,M,0000,0000*66
$GPRMC,211517.000,A,4054.8481,N,07354.2314,W,0.39,33.98,071220,,,D*44
8.5900,1001.2567,49.1614,40.3428

$GPGGA,211525.000,4054.8497,N,07354.2304,W,2,07,1.44,24.2,M,-34.2,M,0000,0000*60
$GPRMC,211525.000,A,4054.8497,N,07354.2304,W,0.69,24.53,071220,,,D*47
8.5000,1001.2751,49.0058,40.8184

$GPGGA,211533.000,4054.8520,N,07354.2285,W,2,07,1.44,23.6,M,-34.2,M,0000,0000*61
$GPRMC,211533.000,A,4054.8520,N,07354.2285,W,0.77,24.56,071220,,,D*4F
8.4400,1001.3340,48.5097,40.5586

$GPGGA,211541.000,4054.8539,N,07354.2270,W,2,07,1.44,22.9,M,-34.2,M,0000,0000*68
$GPRMC,211541.000,A,4054.8539,N,07354.2270,W,0.77,24.10,071220,,,D*4A
8.1800,1001.3589,48.3010,39.5781

$GPGGA,211549.000,4054.8580,N,07354.2265,W,2,08,1.03,21.4,M,-34.2,M,0000,0000*64
$GPRMC,211549.000,A,4054.8580,N,07354.2265,W,1.01,14.17,071220,,,D*40
8.1400,1001.3489,48.3849,40.0928

$GPGGA,211557.000,4054.8634,N,07354.2253,W,2,08,1.03,22.0,M,-34.2,M,0000,0000*65
$GPRMC,211557.000,A,4054.8634,N,07354.2253,W,1.29,6.65,071220,,,D*7A
8.0900,1001.4781,47.2973,40.0996

$GPGGA,211605.000,4054.8685,N,07354.2229,W,2,08,1.03,21.5,M,-34.2,M,0000,0000*60
$GPRMC,211605.000,A,4054.8685,N,07354.2229,W,1.04,358.74,071220,,,D*7E
8.0200,1001.5558,46.6432,40.5078

$GPGGA,211613.000,4054.8725,N,07354.2224,W,2,08,1.03,20.4,M,-34.2,M,0000,0000*61
$GPRMC,211613.000,A,4054.8725,N,07354.2224,W,1.59,348.81,071220,,,D*7C
7.9000,1001.4986,47.1251,40.4502

$GPGGA,211621.000,4054.8751,N,07354.2213,W,2,08,1.03,20.5,M,-34.2,M,0000,0000*66
$GPRMC,211621.000,A,4054.8751,N,07354.2213,W,1.37,356.62,071220,,,D*70
7.6900,1001.5223,46.9261,40.0508

$GPGGA,211629.000,4054.8782,N,07354.2212,W,2,08,1.00,22.0,M,-34.2,M,0000,0000*65
$GPRMC,211629.000,A,4054.8782,N,07354.2212,W,0.78,321.99,071220,,,D*79
7.2300,1001.4966,47.1423,38.9844

$GPGGA,211637.000,4054.8797,N,07354.2216,W,2,08,1.00,23.0,M,-34.2,M,0000,0000*6B
$GPRMC,211637.000,A,4054.8797,N,07354.2216,W,0.13,27.51,071220,,,D*4A
6.8800,1001.6118,46.1725,39.4365

$GPGGA,211645.000,4054.8816,N,07354.2206,W,2,08,1.00,23.6,M,-34.2,M,0000,0000*6F
$GPRMC,211645.000,A,4054.8816,N,07354.2206,W,0.92,20.46,071220,,,D*40
6.9700,1001.5315,46.8483,39.7891

$GPGGA,211653.000,4054.8858,N,07354.2193,W,2,08,1.03,24.8,M,-34.2,M,0000,0000*67
$GPRMC,211653.000,A,4054.8858,N,07354.2193,W,1.38,357.01,071220,,,D*73
6.8400,1001.5663,46.5553,40.0068

$GPGGA,211701.000,4054.8889,N,07354.2182,W,2,08,1.03,24.9,M,-34.2,M,0000,0000*6C
$GPRMC,211701.000,A,4054.8889,N,07354.2182,W,1.14,352.15,071220,,,D*77
7.3000,1001.5739,46.4922,49.1543

$GPGGA,211709.000,4054.8926,N,07354.2162,W,2,08,1.00,25.2,M,-34.2,M,0000,0000*67
$GPRMC,211709.000,A,4054.8926,N,07354.2162,W,1.29,21.60,071220,,,D*4E
7.6000,1001.6844,45.5619,51.9199

$GPGGA,211717.000,4054.8966,N,07354.2146,W,2,08,1.00,25.7,M,-34.2,M,0000,0000*6F
$GPRMC,211717.000,A,4054.8966,N,07354.2146,W,1.64,25.62,071220,,,D*4C
7.9200,1001.6747,45.6437,48.4678

$GPGGA,211725.000,4054.9015,N,07354.2132,W,2,08,1.04,26.1,M,-34.2,M,0000,0000*60
$GPRMC,211725.000,A,4054.9015,N,07354.2132,W,2.04,12.94,071220,,,D*4A
8.1300,1001.7324,45.1584,46.2041

$GPGGA,211733.000,4054.9058,N,07354.2121,W,2,08,1.00,25.1,M,-34.2,M,0000,0000*6B
$GPRMC,211733.000,A,4054.9058,N,07354.2121,W,1.50,20.61,071220,,,D*4F
8.6200,1001.7863,44.7044,48.9941

$GPGGA,211741.000,4054.9100,N,07354.2107,W,2,08,1.00,24.2,M,-34.2,M,0000,0000*64
$GPRMC,211741.000,A,4054.9100,N,07354.2107,W,1.90,12.07,071220,,,D*4F
8.8800,1001.8150,44.4630,49.0586

$GPGGA,211749.000,4054.9132,N,07354.2095,W,2,08,1.00,22.4,M,-34.2,M,0000,0000*67
$GPRMC,211749.000,A,4054.9132,N,07354.2095,W,1.41,18.06,071220,,,D*4B
9.1800,1001.9158,43.6157,48.3438

$GPGGA,211757.000,4054.9143,N,07354.2059,W,2,08,1.00,20.3,M,-34.2,M,0000,0000*6B
$GPRMC,211757.000,A,4054.9143,N,07354.2059,W,1.34,82.99,071220,,,D*45
9.4300,1001.9442,43.3764,48.7168

$GPGGA,211805.000,4054.9143,N,07354.2034,W,2,08,1.00,19.2,M,-34.2,M,0000,0000*63
$GPRMC,211805.000,A,4054.9143,N,07354.2034,W,1.09,96.07,071220,,,D*4A
9.8400,1001.9213,43.5693,51.6807

$GPGGA,211813.000,4054.9154,N,07354.1988,W,2,08,1.00,16.5,M,-34.2,M,0000,0000*67
$GPRMC,211813.000,A,4054.9154,N,07354.1988,W,1.33,105.80,071220,,,D*7B
9.5600,1001.9077,43.6839,42.4775

$GPGGA,211821.000,4054.9155,N,07354.1966,W,2,08,1.00,16.2,M,-34.2,M,0000,0000*60
$GPRMC,211821.000,A,4054.9155,N,07354.1966,W,0.95,90.47,071220,,,D*40
9.1000,1002.0051,42.8639,39.0381

$GPGGA,211829.000,4054.9132,N,07354.1944,W,2,08,1.00,17.1,M,-34.2,M,0000,0000*6B
$GPRMC,211829.000,A,4054.9132,N,07354.1944,W,1.30,104.40,071220,,,D*7C
9.1700,1001.9816,43.0618,39.9453

$GPGGA,211837.000,4054.9117,N,07354.1889,W,2,07,1.42,16.9,M,-34.2,M,0000,0000*63
$GPRMC,211837.000,A,4054.9117,N,07354.1889,W,1.75,113.99,071220,,,D*77
8.9600,1002.0525,42.4655,39.1758

$GPGGA,211845.000,4054.9086,N,07354.1837,W,2,07,1.42,16.9,M,-34.2,M,0000,0000*6A
$GPRMC,211845.000,A,4054.9086,N,07354.1837,W,1.69,136.99,071220,,,D*74
8.9600,1002.0525,42.4655,40.1689

$GPGGA,211853.000,4054.9057,N,07354.1831,W,2,07,1.42,16.6,M,-34.2,M,0000,0000*68
$GPRMC,211853.000,A,4054.9057,N,07354.1831,W,1.15,186.32,071220,,,D*78
8.8300,1002.1699,41.4780,40.3408

$GPGGA,211901.000,4054.9034,N,07354.1834,W,2,07,1.42,16.1,M,-34.2,M,0000,0000*69
$GPRMC,211901.000,A,4054.9034,N,07354.1834,W,1.08,193.14,071220,,,D*72
8.7300,1002.2075,41.1615,40.3320

$GPGGA,211909.000,4054.8989,N,07354.1833,W,2,06,1.48,15.4,M,-34.2,M,0000,0000*65
$GPRMC,211909.000,A,4054.8989,N,07354.1833,W,1.59,216.83,071220,,,D*77
8.5300,1002.1933,41.2811,39.4492

$GPGGA,211917.000,4054.8924,N,07354.1818,W,2,07,1.43,14.4,M,-34.2,M,0000,0000*6F
$GPRMC,211917.000,A,4054.8924,N,07354.1818,W,1.26,220.87,071220,,,D*7F
8.2700,1002.1750,41.4346,38.8369

$GPGGA,211925.000,4054.8866,N,07354.1809,W,2,08,1.01,13.9,M,-34.2,M,0000,0000*6A
$GPRMC,211925.000,A,4054.8866,N,07354.1809,W,1.06,173.18,071220,,,D*78
7.9100,1002.1124,41.9622,38.8965

$GPGGA,211933.000,4054.8844,N,07354.1793,W,2,07,1.43,13.5,M,-34.2,M,0000,0000*64
$GPRMC,211933.000,A,4054.8844,N,07354.1793,W,0.69,93.83,071220,,,D*46
7.6800,1002.0762,42.2656,38.9326

$GPGGA,211941.000,4054.8835,N,07354.1769,W,2,07,1.43,14.0,M,-34.2,M,0000,0000*60
$GPRMC,211941.000,A,4054.8835,N,07354.1769,W,1.00,164.52,071220,,,D*7B
7.7500,1002.1348,41.7734,39.3779

$GPGGA,211949.000,4054.8816,N,07354.1739,W,2,07,1.43,16.2,M,-34.2,M,0000,0000*6C
$GPRMC,211949.000,A,4054.8816,N,07354.1739,W,1.19,154.60,071220,,,D*7D
7.6600,1002.0443,42.5342,39.5068

$GPGGA,211957.000,4054.8808,N,07354.1718,W,2,07,1.43,16.7,M,-34.2,M,0000,0000*6A
$GPRMC,211957.000,A,4054.8808,N,07354.1718,W,0.71,170.03,071220,,,D*72
7.5000,1002.0120,42.8063,39.0439

$GPGGA,212005.000,4054.8812,N,07354.1716,W,2,08,1.01,16.7,M,-34.2,M,0000,0000*6B
$GPRMC,212005.000,A,4054.8812,N,07354.1716,W,0.46,345.88,071220,,,D*79
7.5100,1002.0201,42.7382,39.5850

$GPGGA,212013.000,4054.8815,N,07354.1715,W,2,08,1.04,16.8,M,-34.2,M,0000,0000*62
$GPRMC,212013.000,A,4054.8815,N,07354.1715,W,0.65,356.68,071220,,,D*77
7.5100,1001.9115,43.6516,41.3916

$GPGGA,212021.000,4054.8839,N,07354.1714,W,2,07,1.43,18.1,M,-34.2,M,0000,0000*67
$GPRMC,212021.000,A,4054.8839,N,07354.1714,W,0.79,7.74,071220,,,D*7E
7.5000,1001.8412,44.2423,42.3906

$GPGGA,212029.000,4054.8862,N,07354.1699,W,2,08,1.01,19.0,M,-34.2,M,0000,0000*6C
$GPRMC,212029.000,A,4054.8862,N,07354.1699,W,1.27,27.77,071220,,,D*47
7.4100,1001.6500,45.8513,42.1533

$GPGGA,212037.000,4054.8864,N,07354.1653,W,2,06,1.59,19.4,M,-34.2,M,0000,0000*64
$GPRMC,212037.000,A,4054.8864,N,07354.1653,W,1.14,76.14,071220,,,D*49
7.2700,1001.6071,46.2124,41.8398

$GPGGA,212045.000,4054.8847,N,07354.1605,W,2,06,1.59,19.7,M,-34.2,M,0000,0000*60
$GPRMC,212045.000,A,4054.8847,N,07354.1605,W,1.42,97.20,071220,,,D*45
6.9100,1001.6519,45.8356,39.9893

$GPGGA,212053.000,4054.8828,N,07354.1557,W,2,07,1.43,20.0,M,-34.2,M,0000,0000*6D
$GPRMC,212053.000,A,4054.8828,N,07354.1557,W,1.57,96.51,071220,,,D*4C
6.7100,1001.6282,46.0351,39.8906

$GPGGA,212101.000,4054.8817,N,07354.1508,W,2,07,1.43,20.5,M,-34.2,M,0000,0000*68
$GPRMC,212101.000,A,4054.8817,N,07354.1508,W,1.22,99.86,071220,,,D*4B
6.5800,1001.5436,46.7468,39.8340

$GPGGA,212109.000,4054.8807,N,07354.1458,W,2,06,1.59,20.8,M,-34.2,M,0000,0000*62
$GPRMC,212109.000,A,4054.8807,N,07354.1458,W,1.59,103.32,071220,,,D*77
6.5400,1001.6147,46.1483,40.1621

$GPGGA,212117.000,4054.8811,N,07354.1394,W,1,07,1.44,21.0,M,-34.2,M,,*6A
$GPRMC,212117.000,A,4054.8811,N,07354.1394,W,1.52,115.39,071220,,,A*7A
6.5800,1001.5978,46.2902,40.5342

$GPGGA,212125.000,4054.8817,N,07354.1364,W,1,07,1.44,21.2,M,-34.2,M,,*60
$GPRMC,212125.000,A,4054.8817,N,07354.1364,W,1.45,170.92,071220,,,A*76
6.5200,1001.5828,46.4165,40.3672

$GPGGA,212133.000,4054.8783,N,07354.1355,W,1,08,1.01,21.8,M,-34.2,M,,*63
$GPRMC,212133.000,A,4054.8783,N,07354.1355,W,1.37,178.24,071220,,,A*71
6.5500,1001.5957,46.3084,41.1963

$GPGGA,212141.000,4054.8744,N,07354.1365,W,1,08,1.01,23.0,M,-34.2,M,,*64
$GPRMC,212141.000,A,4054.8744,N,07354.1365,W,0.99,174.36,071220,,,A*76
6.6100,1001.5759,46.4750,42.7383

$GPGGA,212149.000,4054.8696,N,07354.1362,W,1,08,1.01,23.9,M,-34.2,M,,*6C
$GPRMC,212149.000,A,4054.8696,N,07354.1362,W,1.49,210.48,071220,,,A*73
6.5200,1001.4202,47.7853,41.6406

$GPGGA,212157.000,4054.8618,N,07354.1326,W,1,08,1.01,25.3,M,-34.2,M,,*69
$GPRMC,212157.000,A,4054.8618,N,07354.1326,W,2.22,176.14,071220,,,A*7E
6.3600,1001.2983,48.8108,40.8691

$GPGGA,212205.000,4054.8566,N,07354.1333,W,1,08,1.01,26.9,M,-34.2,M,,*6A
$GPRMC,212205.000,A,4054.8566,N,07354.1333,W,1.64,188.28,071220,,,A*7B
6.2700,1001.3078,48.7309,41.1113

$GPGGA,212213.000,4054.8554,N,07354.1350,W,1,08,1.01,29.7,M,-34.2,M,,*68
$GPRMC,212213.000,A,4054.8554,N,07354.1350,W,1.88,179.56,071220,,,A*7D
6.3200,1001.2880,48.8977,41.0938

$GPGGA,212221.000,4054.8542,N,07354.1353,W,1,08,1.01,31.6,M,-34.2,M,,*65
$GPRMC,212221.000,A,4054.8542,N,07354.1353,W,0.66,153.61,071220,,,A*75
6.2800,1001.1423,50.1238,41.3545

$GPGGA,212229.000,4054.8556,N,07354.1368,W,1,08,1.01,32.4,M,-34.2,M,,*61
$GPRMC,212229.000,A,4054.8556,N,07354.1368,W,0.52,233.41,071220,,,A*70
6.3300,1001.1606,49.9692,43.2959

$GPGGA,212237.000,4054.8555,N,07354.1371,W,1,08,1.01,32.4,M,-34.2,M,,*65
$GPRMC,212237.000,A,4054.8555,N,07354.1371,W,0.06,148.26,071220,,,A*7B
6.3400,1001.1766,49.8353,43.2744

$GPGGA,212245.000,4054.8566,N,07354.1355,W,1,08,1.01,32.5,M,-34.2,M,,*67
$GPRMC,212245.000,A,4054.8566,N,07354.1355,W,1.58,90.09,071220,,,A*4B
6.3100,1001.1908,49.7156,44.0283

$GPGGA,212253.000,4054.8581,N,07354.1301,W,1,08,1.01,32.9,M,-34.2,M,,*64
$GPRMC,212253.000,A,4054.8581,N,07354.1301,W,1.50,98.40,071220,,,A*49
6.2500,1001.2025,49.6171,43.5752

$GPGGA,212301.000,4054.8573,N,07354.1268,W,1,08,1.01,32.0,M,-34.2,M,,*68
$GPRMC,212301.000,A,4054.8573,N,07354.1268,W,0.92,119.80,071220,,,A*77
6.1100,1001.1316,50.2138,41.7617

$GPGGA,212309.000,4054.8542,N,07354.1244,W,1,08,1.01,31.1,M,-34.2,M,,*6E
$GPRMC,212309.000,A,4054.8542,N,07354.1244,W,1.55,189.19,071220,,,A*70
6.0400,1001.2356,49.3382,41.7656

$GPGGA,212317.000,4054.8497,N,07354.1229,W,2,07,1.05,31.6,M,-34.2,M,0000,0000*6C
$GPRMC,212317.000,A,4054.8497,N,07354.1229,W,1.36,159.90,071220,,,D*71
5.8700,1001.1324,50.2067,41.1660

$GPGGA,212325.000,4054.8465,N,07354.1204,W,2,08,1.01,32.4,M,-34.2,M,0000,0000*65
$GPRMC,212325.000,A,4054.8465,N,07354.1204,W,1.39,170.40,071220,,,D*7B
5.8200,1001.0709,50.7246,41.2861

$GPGGA,212333.000,4054.8456,N,07354.1217,W,2,08,1.01,32.0,M,-34.2,M,0000,0000*64
$GPRMC,212333.000,A,4054.8456,N,07354.1217,W,0.45,181.28,071220,,,D*74
5.9000,1000.9833,51.4623,41.9355

$GPGGA,212341.000,4054.8448,N,07354.1217,W,2,08,1.01,32.0,M,-34.2,M,0000,0000*6E
$GPRMC,212341.000,A,4054.8448,N,07354.1217,W,0.35,178.25,071220,,,D*72
6.5600,1000.9423,51.8075,44.2832

$GPGGA,212349.000,4054.8444,N,07354.1221,W,1,07,1.01,32.0,M,-34.2,M,,*63
$GPRMC,212349.000,A,4054.8444,N,07354.1221,W,0.26,173.44,071220,,,A*78
6.9700,1000.9349,51.8691,48.7852

$GPGGA,212357.000,4054.8441,N,07354.1213,W,1,04,1.73,32.0,M,-34.2,M,,*6E
$GPRMC,212357.000,A,4054.8441,N,07354.1213,W,0.35,118.91,071220,,,A*74
7.4100,1000.9637,51.6266,51.1855

$GPGGA,212405.000,4054.8365,N,07354.1087,W,6,02,99.99,32.0,M,-34.2,M,,*54
$GPRMC,212405.000,V,,,,,2.04,124.00,071220,,,E*41
7.6300,1000.9370,51.8514,52.6562

$GPGGA,212413.000,,,,,0,01,,,M,,M,,*7E
$GPRMC,212413.000,V,,,,,3.16,121.11,071220,,,N*4A
7.9500,1000.7097,53.7653,53.7031

$GPGGA,212421.000,,,,,0,00,,,M,,M,,*7E
$GPRMC,212421.000,V,,,,,0.11,120.79,071220,,,N*40
8.1900,1000.1170,58.7571,62.0107

$GPGGA,212429.000,,,,,0,00,,,M,,M,,*76
$GPRMC,212429.000,V,,,,,0.02,305.36,071220,,,N*44
8.7100,999.6191,62.9525,64.7080

$GPGGA,212437.000,,,,,0,00,,,M,,M,,*79
$GPRMC,212437.000,V,,,,,0.00,0.00,071220,,,N*4A
8.9700,999.1301,67.0736,58.7354

$GPGGA,212445.000,,,,,0,05,,,M,,M,,*79
$GPRMC,212445.000,V,,,,,1.37,43.31,071220,,,N*7F
9.1900,998.8645,69.3133,57.1572

$GPGGA,212453.000,4054.8510,N,07354.1159,W,1,08,1.01,41.0,M,-34.2,M,,*68
$GPRMC,212453.000,A,4054.8510,N,07354.1159,W,1.18,349.74,071220,,,A*7C
10.0000,998.9192,68.8521,56.3086

$GPGGA,212501.000,4054.8531,N,07354.1170,W,1,07,1.46,39.1,M,-34.2,M,,*64
$GPRMC,212501.000,A,4054.8531,N,07354.1170,W,0.68,359.04,071220,,,A*72
10.4400,998.8408,69.5132,56.3555

$GPGGA,212509.000,4054.8514,N,07354.1149,W,1,08,1.01,40.7,M,-34.2,M,,*65
$GPRMC,212509.000,A,4054.8514,N,07354.1149,W,0.52,317.87,071220,,,A*7F
10.6900,998.9324,68.7408,61.9297

$GPGGA,212517.000,4054.8514,N,07354.1161,W,1,08,1.01,40.5,M,-34.2,M,,*62
$GPRMC,212517.000,A,4054.8514,N,07354.1161,W,0.87,261.04,071220,,,A*79
11.3100,998.9326,68.7393,63.7695

$GPGGA,212525.000,4054.8513,N,07354.1155,W,1,08,1.01,44.0,M,-34.2,M,,*62
$GPRMC,212525.000,A,4054.8513,N,07354.1155,W,0.44,146.38,071220,,,A*7E
11.5500,998.9334,68.7322,66.1436

$GPGGA,212533.000,4054.8513,N,07354.1157,W,1,08,1.01,43.9,M,-34.2,M,,*69
$GPRMC,212533.000,A,4054.8513,N,07354.1157,W,0.64,242.86,071220,,,A*7B
11.6600,998.9456,68.6294,65.3193

$GPGGA,212541.000,4054.8528,N,07354.1167,W,2,08,1.01,44.0,M,-34.2,M,0000,0000*6A
$GPRMC,212541.000,A,4054.8528,N,07354.1167,W,0.09,328.88,071220,,,D*78
11.8600,998.9645,68.4695,62.9600

$GPGGA,212549.000,4054.8541,N,07354.1189,W,2,08,1.01,44.1,M,-34.2,M,0000,0000*6C
$GPRMC,212549.000,A,4054.8541,N,07354.1189,W,0.19,322.32,071220,,,D*75
11.7400,998.9097,68.9321,52.2188

$GPGGA,212557.000,4054.8551,N,07354.1199,W,2,08,1.01,46.1,M,-34.2,M,0000,0000*61
$GPRMC,212557.000,A,4054.8551,N,07354.1199,W,0.06,125.06,071220,,,D*76
11.8100,998.9472,68.6158,50.8037

$GPGGA,212605.000,4054.8547,N,07354.1206,W,2,08,1.01,46.0,M,-34.2,M,0000,0000*66
$GPRMC,212605.000,A,4054.8547,N,07354.1206,W,0.07,341.87,071220,,,D*78
11.8900,998.9111,68.9205,50.1992

$GPGGA,212613.000,4054.8547,N,07354.1211,W,2,08,1.06,46.9,M,-34.2,M,0000,0000*69
$GPRMC,212613.000,A,4054.8547,N,07354.1211,W,0.01,71.67,071220,,,D*41
12.1000,998.9025,68.9923,58.2227

$GPGGA,212621.000,4054.8548,N,07354.1210,W,2,08,1.06,46.9,M,-34.2,M,0000,0000*66
$GPRMC,212621.000,A,4054.8548,N,07354.1210,W,0.01,201.17,071220,,,D*7C
12.3200,998.8979,69.0313,56.1807

$GPGGA,212629.000,4054.8549,N,07354.1208,W,2,09,0.86,46.9,M,-34.2,M,0000,0000*6E
$GPRMC,212629.000,A,4054.8549,N,07354.1208,W,0.01,282.23,071220,,,D*70
12.4900,998.9311,68.7519,57.4990

$GPGGA,212637.000,4054.8553,N,07354.1209,W,2,09,0.86,47.0,M,-34.2,M,0000,0000*63
$GPRMC,212637.000,A,4054.8553,N,07354.1209,W,0.04,291.72,071220,,,D*76
12.6900,998.8946,69.0597,58.5576

$GPGGA,212645.000,4054.8552,N,07354.1207,W,1,08,0.99,46.9,M,-34.2,M,,*6D
$GPRMC,212645.000,A,4054.8552,N,07354.1207,W,0.01,105.55,071220,,,A*77
12.8500,998.9036,68.9837,57.1768

$GPGGA,212653.000,4054.8552,N,07354.1185,W,2,09,0.86,46.4,M,-34.2,M,0000,0000*62
$GPRMC,212653.000,A,4054.8552,N,07354.1185,W,0.13,93.90,071220,,,D*48
12.8700,998.9081,68.9453,48.9990

$GPGGA,212701.000,4054.8553,N,07354.1175,W,2,08,0.99,46.9,M,-34.2,M,0000,0000*68
$GPRMC,212701.000,A,4054.8553,N,07354.1175,W,0.03,103.90,071220,,,D*79
12.9400,998.8475,69.4570,54.5205

$GPGGA,212709.000,4054.8553,N,07354.1171,W,2,08,0.99,47.5,M,-34.2,M,0000,0000*69
$GPRMC,212709.000,A,4054.8553,N,07354.1171,W,0.02,64.23,071220,,,D*4C
12.9700,998.9033,68.9863,54.9668

$GPGGA,212716.000,4054.8549,N,07354.1173,W,2,08,0.99,50.3,M,-34.2,M,0000,0000*6E
$GPRMC,212716.000,A,4054.8549,N,07354.1173,W,0.03,66.28,071220,,,D*43
12.9800,998.8566,69.3801,53.2842

$GPGGA,212724.000,4054.8550,N,07354.1167,W,2,08,0.99,50.5,M,-34.2,M,0000,0000*64
$GPRMC,212724.000,A,4054.8550,N,07354.1167,W,0.03,2.38,071220,,,D*7C
12.9800,998.9465,68.6218,54.1426

$GPGGA,212732.000,4054.8552,N,07354.1166,W,2,09,0.86,49.1,M,-34.2,M,0000,0000*63
$GPRMC,212732.000,A,4054.8552,N,07354.1166,W,0.02,203.76,071220,,,D*70
12.9900,998.9352,68.7165,53.1934

$GPGGA,212740.000,4054.8554,N,07354.1166,W,2,08,0.99,48.1,M,-34.2,M,0000,0000*6E
$GPRMC,212740.000,A,4054.8554,N,07354.1166,W,0.03,5.55,071220,,,D*77
12.8500,998.9583,68.5226,45.6729

$GPGGA,212748.000,4054.8554,N,07354.1163,W,2,08,1.18,46.5,M,-34.2,M,0000,0000*61
$GPRMC,212748.000,A,4054.8554,N,07354.1163,W,0.02,5.24,071220,,,D*7D
12.8100,998.9218,68.8299,42.8887

$GPGGA,212756.000,4054.8553,N,07354.1162,W,2,08,1.18,46.3,M,-34.2,M,0000,0000*6E
$GPRMC,212756.000,A,4054.8553,N,07354.1162,W,0.02,166.44,071220,,,D*76
12.7100,998.9266,68.7899,40.8076

$GPGGA,212804.000,4054.8551,N,07354.1169,W,2,09,0.86,48.2,M,-34.2,M,0000,0000*67
$GPRMC,212804.000,A,4054.8551,N,07354.1169,W,0.02,345.14,071220,,,D*71
12.5100,998.9824,68.3197,38.2402

$GPGGA,212812.000,4054.8550,N,07354.1177,W,2,09,0.86,49.8,M,-34.2,M,0000,0000*65
$GPRMC,212812.000,A,4054.8550,N,07354.1177,W,0.04,358.10,071220,,,D*76
12.3500,998.8911,69.0890,36.7930

$GPGGA,212820.000,4054.8547,N,07354.1184,W,2,08,0.99,51.7,M,-34.2,M,0000,0000*67
$GPRMC,212820.000,A,4054.8547,N,07354.1184,W,0.02,70.54,071220,,,D*42
11.5400,998.8984,69.0273,35.3535

$GPGGA,212828.000,4054.8546,N,07354.1185,W,2,08,1.18,51.9,M,-34.2,M,0000,0000*69
$GPRMC,212828.000,A,4054.8546,N,07354.1185,W,0.01,202.26,071220,,,D*7B
11.6800,998.9311,68.7519,38.4111

$GPGGA,212836.000,4054.8545,N,07354.1180,W,2,08,1.18,51.0,M,-34.2,M,0000,0000*69
$GPRMC,212836.000,A,4054.8545,N,07354.1180,W,0.02,1.04,071220,,,D*70
11.5600,998.9224,68.8253,35.4131

$GPGGA,212844.000,4054.8546,N,07354.1176,W,2,08,1.17,50.8,M,-34.2,M,0000,0000*60
$GPRMC,212844.000,A,4054.8546,N,07354.1176,W,0.01,130.44,071220,,,D*7B
11.5200,998.8391,69.5279,35.8984

$GPGGA,212852.000,4054.8548,N,07354.1175,W,2,08,1.17,50.5,M,-34.2,M,0000,0000*67
$GPRMC,212852.000,A,4054.8548,N,07354.1175,W,0.01,3.24,071220,,,D*76
11.3200,998.9019,68.9984,38.1006

$GPGGA,212900.000,4054.8550,N,07354.1188,W,2,09,0.86,52.0,M,-34.2,M,0000,0000*65
$GPRMC,212900.000,A,4054.8550,N,07354.1188,W,0.01,252.08,071220,,,D*73
11.3700,998.8920,69.0809,38.2559

$GPGGA,212908.000,4054.8552,N,07354.1192,W,2,08,1.17,53.7,M,-34.2,M,0000,0000*6A
$GPRMC,212908.000,A,4054.8552,N,07354.1192,W,0.00,0.00,071220,,,D*7E
11.2600,998.9155,68.8835,38.8389

$GPGGA,212916.000,4054.8552,N,07354.1191,W,2,07,1.19,54.7,M,-34.2,M,0000,0000*60
$GPRMC,212916.000,A,4054.8552,N,07354.1191,W,0.00,142.39,071220,,,D*7F
10.7900,998.9366,68.7054,35.7227

$GPGGA,212924.000,4054.8552,N,07354.1190,W,2,07,1.19,54.7,M,-34.2,M,0000,0000*60
$GPRMC,212924.000,A,4054.8552,N,07354.1190,W,0.02,307.16,071220,,,D*73
10.6700,998.8812,69.1725,35.1328

$GPGGA,212932.000,4054.8546,N,07354.1197,W,2,07,1.18,57.8,M,-34.2,M,0000,0000*68
$GPRMC,212932.000,A,4054.8546,N,07354.1197,W,0.02,174.41,071220,,,D*72
10.6400,998.9694,68.4290,35.1182

$GPGGA,212940.000,4054.8545,N,07354.1196,W,2,08,1.17,57.9,M,-34.2,M,0000,0000*6E
$GPRMC,212940.000,A,4054.8545,N,07354.1196,W,0.01,242.26,071220,,,D*71
10.2300,998.9684,68.4366,34.4590

$GPGGA,212948.000,4054.8545,N,07354.1196,W,2,08,1.17,57.9,M,-34.2,M,0000,0000*66
$GPRMC,212948.000,A,4054.8545,N,07354.1196,W,0.04,347.68,071220,,,D*72
9.7300,998.9313,68.7504,34.6396

$GPGGA,212956.000,4054.8548,N,07354.1196,W,2,08,1.17,58.1,M,-34.2,M,0000,0000*63
$GPRMC,212956.000,A,4054.8548,N,07354.1196,W,0.01,32.77,071220,,,D*4A
9.8400,998.8621,69.3340,35.0762

$GPGGA,213004.000,4054.8548,N,07354.1195,W,2,07,1.18,58.2,M,-34.2,M,0000,0000*6C
$GPRMC,213004.000,A,4054.8548,N,07354.1195,W,0.04,55.64,071220,,,D*40
9.4200,998.8706,69.2616,35.4473

$GPGGA,213012.000,4054.8547,N,07354.1194,W,2,09,0.86,59.1,M,-34.2,M,0000,0000*6F
$GPRMC,213012.000,A,4054.8547,N,07354.1194,W,0.00,40.54,071220,,,D*4A
9.4400,998.9108,68.9230,35.0449

$GPGGA,213020.000,4054.8542,N,07354.1193,W,2,09,0.86,61.6,M,-34.2,M,0000,0000*60
$GPRMC,213020.000,A,4054.8542,N,07354.1193,W,0.02,108.88,071220,,,D*77
9.4600,998.8531,69.4089,35.5664

$GPGGA,213028.000,4054.8532,N,07354.1185,W,2,09,0.86,65.2,M,-34.2,M,0000,0000*68
$GPRMC,213028.000,A,4054.8532,N,07354.1185,W,0.02,173.35,071220,,,D*75
9.3300,998.8903,69.0961,35.5322

$GPGGA,213036.000,4054.8524,N,07354.1180,W,2,08,0.87,68.7,M,-34.2,M,0000,0000*6D
$GPRMC,213036.000,A,4054.8524,N,07354.1180,W,0.02,160.98,071220,,,D*7D
9.3500,998.8675,69.2879,36.5518

$GPGGA,213044.000,4054.8519,N,07354.1176,W,2,09,0.86,70.2,M,-34.2,M,0000,0000*63
$GPRMC,213044.000,A,4054.8519,N,07354.1176,W,0.01,136.91,071220,,,D*76
9.3900,998.8228,69.6651,38.0127

$GPGGA,213052.000,4054.8519,N,07354.1178,W,2,08,0.87,69.9,M,-34.2,M,0000,0000*69
$GPRMC,213052.000,A,4054.8519,N,07354.1178,W,0.03,338.89,071220,,,D*78
9.3200,998.8822,69.1639,38.3994

$GPGGA,213100.000,4054.8518,N,07354.1180,W,2,09,0.86,69.4,M,-34.2,M,0000,0000*64
$GPRMC,213100.000,A,4054.8518,N,07354.1180,W,0.00,24.24,071220,,,D*42
9.1500,998.8823,69.1629,36.6973

$GPGGA,213108.000,4054.8509,N,07354.1180,W,2,09,0.86,68.5,M,-34.2,M,0000,0000*6C
$GPRMC,213108.000,A,4054.8509,N,07354.1180,W,0.01,116.84,071220,,,D*71
9.7700,998.8669,69.2930,54.4727

$GPGGA,213116.000,4054.8494,N,07354.1174,W,2,09,0.86,68.8,M,-34.2,M,0000,0000*60
$GPRMC,213116.000,A,4054.8494,N,07354.1174,W,0.01,92.81,071220,,,D*48
10.0100,998.9896,68.2584,56.8398

$GPGGA,213124.000,4054.8477,N,07354.1166,W,2,09,0.86,68.6,M,-34.2,M,0000,0000*61
$GPRMC,213124.000,A,4054.8477,N,07354.1166,W,0.02,205.49,071220,,,D*7C
10.3400,998.9261,68.7939,60.1426

$GPGGA,213132.000,4054.8477,N,07354.1163,W,2,09,0.86,68.5,M,-34.2,M,0000,0000*60
$GPRMC,213132.000,A,4054.8477,N,07354.1163,W,0.03,28.89,071220,,,D*4E
10.5300,998.8756,69.2196,58.4639

$GPGGA,213140.000,4054.8478,N,07354.1162,W,2,09,0.86,68.5,M,-34.2,M,0000,0000*6B
$GPRMC,213140.000,A,4054.8478,N,07354.1162,W,0.02,87.22,071220,,,D*40
11.0700,998.9666,68.4528,62.3643

$GPGGA,213148.000,4054.8478,N,07354.1162,W,2,09,0.86,68.4,M,-34.2,M,0000,0000*62
$GPRMC,213148.000,A,4054.8478,N,07354.1162,W,0.01,72.02,071220,,,D*43
11.4300,998.9139,68.8967,61.8730

$GPGGA,213156.000,4054.8478,N,07354.1162,W,2,09,0.86,68.4,M,-34.2,M,0000,0000*6D
$GPRMC,213156.000,A,4054.8478,N,07354.1162,W,0.03,172.69,071220,,,D*72
11.7700,998.9109,68.9220,59.9707

$GPGGA,213204.000,4054.8477,N,07354.1162,W,2,09,0.86,68.4,M,-34.2,M,0000,0000*66
$GPRMC,213204.000,A,4054.8477,N,07354.1162,W,0.01,201.04,071220,,,D*77
11.8700,998.8984,69.0273,54.9434

$GPGGA,213212.000,4054.8477,N,07354.1162,W,2,09,0.86,68.4,M,-34.2,M,0000,0000*61
$GPRMC,213212.000,A,4054.8477,N,07354.1162,W,0.00,44.91,071220,,,D*4E
12.2800,998.8695,69.2712,52.9561

$GPGGA,213220.000,4054.8477,N,07354.1162,W,2,07,1.19,68.4,M,-34.2,M,0000,0000*69
$GPRMC,213220.000,A,4054.8477,N,07354.1162,W,0.02,58.24,071220,,,D*4E
12.4200,998.9014,69.0020,51.8135

$GPGGA,213228.000,4054.8478,N,07354.1161,W,2,07,1.19,68.4,M,-34.2,M,0000,0000*6D
$GPRMC,213228.000,A,4054.8478,N,07354.1161,W,0.04,6.90,071220,,,D*78
12.5600,998.9526,68.5702,51.3535

$GPGGA,213236.000,4054.8478,N,07354.1162,W,2,06,1.72,68.4,M,-34.2,M,0000,0000*6D
$GPRMC,213236.000,A,4054.8478,N,07354.1162,W,0.04,209.34,071220,,,D*77
12.7100,998.8638,69.3193,52.3809

$GPGGA,213244.000,4054.8478,N,07354.1162,W,2,05,1.98,68.4,M,-34.2,M,0000,0000*6F
$GPRMC,213244.000,A,4054.8478,N,07354.1162,W,0.00,95.88,071220,,,D*46
12.9100,998.9169,68.8709,53.0332

$GPGGA,213252.000,,,,,0,03,17.09,,M,,M,0000,0000*5F
$GPRMC,213252.000,V,,,,,0.00,151.76,071220,,,N*4A
13.0500,998.8510,69.4277,51.2598

$GPGGA,213300.000,,,,,0,00,,,M,,M,,*7B
$GPRMC,213300.000,V,,,,,0.00,122.90,071220,,,N*40
13.1100,999.3301,65.3875,49.8965

$GPGGA,213308.000,,,,,0,00,,,M,,M,,*73
$GPRMC,213308.000,V,,,,,0.00,0.00,071220,,,N*40
13.2500,999.8352,61.1310,51.1445

$GPGGA,213316.000,,,,,0,00,,,M,,M,,*7C
$GPRMC,213316.000,V,,,,,0.00,0.00,071220,,,N*4F
13.3500,1000.3431,56.8524,50.3770

$GPGGA,213324.000,,,,,0,00,,,M,,M,,*7D
$GPRMC,213324.000,V,,,,,0.00,0.00,071220,,,N*4E
13.4800,1000.8248,52.7959,50.2754

$GPGGA,213332.000,,,,,0,06,,,M,,M,0000,0000*7C
$GPRMC,213332.000,V,,,,,0.03,152.66,071220,,,N*4C
13.6300,1000.9628,51.6341,46.9531

$GPGGA,213340.000,4054.8450,N,07354.1358,W,2,07,1.22,71.3,M,-34.2,M,0000,0000*67
$GPRMC,213340.000,A,4054.8450,N,07354.1358,W,1.39,328.37,071220,,,D*78
13.7400,1000.9934,51.3769,39.8174

$GPGGA,213348.000,4054.8461,N,07354.1391,W,2,09,0.86,75.9,M,-34.2,M,0000,0000*67
$GPRMC,213348.000,A,4054.8461,N,07354.1391,W,0.23,290.97,071220,,,D*75
12.4100,1001.0467,50.9282,34.8184

$GPGGA,213356.000,4054.8464,N,07354.1364,W,2,09,0.86,73.8,M,-34.2,M,0000,0000*60
$GPRMC,213356.000,A,4054.8464,N,07354.1364,W,0.33,108.60,071220,,,D*7E
12.7300,1001.0386,50.9969,37.6182

$GPGGA,213404.000,4054.8468,N,07354.1363,W,2,07,1.22,72.9,M,-34.2,M,0000,0000*6A
$GPRMC,213404.000,A,4054.8468,N,07354.1363,W,0.07,253.63,071220,,,D*7C
12.7100,1001.0340,51.0353,37.8496

$GPGGA,213412.000,4054.8470,N,07354.1363,W,2,09,0.86,73.3,M,-34.2,M,0000,0000*6E
$GPRMC,213412.000,A,4054.8470,N,07354.1363,W,0.18,328.30,071220,,,D*77
12.6500,1001.1214,50.2997,37.4824

$GPGGA,213420.000,4054.8479,N,07354.1360,W,2,09,0.86,73.7,M,-34.2,M,0000,0000*61
$GPRMC,213420.000,A,4054.8479,N,07354.1360,W,0.22,359.97,071220,,,D*7E
12.4200,1001.0900,50.5634,35.4258

$GPGGA,213428.000,4054.8483,N,07354.1359,W,2,09,0.86,73.7,M,-34.2,M,0000,0000*66
$GPRMC,213428.000,A,4054.8483,N,07354.1359,W,0.08,86.30,071220,,,D*4D
12.3500,1001.0327,51.0465,34.4639

$GPGGA,213436.000,4054.8491,N,07354.1351,W,2,09,0.86,74.1,M,-34.2,M,0000,0000*63
$GPRMC,213436.000,A,4054.8491,N,07354.1351,W,0.38,6.96,071220,,,D*7E
12.1800,1001.0344,51.0323,35.0674

$GPGGA,213444.000,4054.8523,N,07354.1353,W,2,09,0.86,74.1,M,-34.2,M,0000,0000*6C
$GPRMC,213444.000,A,4054.8523,N,07354.1353,W,1.16,359.90,071220,,,D*73
11.4200,1001.0826,50.6256,32.9951

$GPGGA,213452.000,4054.8559,N,07354.1360,W,2,09,0.86,73.4,M,-34.2,M,0000,0000*64
$GPRMC,213452.000,A,4054.8559,N,07354.1360,W,0.90,278.65,071220,,,D*7E
11.1900,1001.1436,50.1127,32.8955

$GPGGA,213500.000,4054.8572,N,07354.1376,W,2,09,0.86,71.4,M,-34.2,M,0000,0000*6E
$GPRMC,213500.000,A,4054.8572,N,07354.1376,W,0.71,223.94,071220,,,D*79
11.1600,1001.2126,49.5317,33.8242

$GPGGA,213508.000,4054.8576,N,07354.1394,W,2,09,0.85,70.9,M,-34.2,M,0000,0000*61
$GPRMC,213508.000,A,4054.8576,N,07354.1394,W,1.27,297.43,071220,,,D*7E
11.2500,1001.1384,50.1567,33.2490

$GPGGA,213516.000,4054.8614,N,07354.1416,W,2,09,0.85,68.4,M,-34.2,M,0000,0000*60
$GPRMC,213516.000,A,4054.8614,N,07354.1416,W,1.57,322.93,071220,,,D*7E
10.8400,1001.1367,50.1708,33.6475

$GPGGA,213524.000,4054.8649,N,07354.1392,W,2,09,0.86,65.3,M,-34.2,M,0000,0000*6B
$GPRMC,213524.000,A,4054.8649,N,07354.1392,W,1.52,289.96,071220,,,D*7C
10.4700,1001.1794,49.8116,33.3984

$GPGGA,213532.000,4054.8661,N,07354.1455,W,2,09,0.86,62.1,M,-34.2,M,0000,0000*6F
$GPRMC,213532.000,A,4054.8661,N,07354.1455,W,2.30,292.83,071220,,,D*74
10.3500,1001.2871,48.9047,33.9932

$GPGGA,213540.000,4054.8660,N,07354.1523,W,2,08,1.09,59.3,M,-34.2,M,0000,0000*66
$GPRMC,213540.000,A,4054.8660,N,07354.1523,W,2.16,279.94,071220,,,D*77
10.5200,1001.2049,49.5969,34.1572

$GPGGA,213548.000,4054.8685,N,07354.1572,W,2,08,1.09,55.5,M,-34.2,M,0000,0000*6B
$GPRMC,213548.000,A,4054.8685,N,07354.1572,W,1.79,321.51,071220,,,D*7F
10.5300,1001.4585,47.4625,34.0537

$GPGGA,213556.000,4054.8715,N,07354.1597,W,2,08,1.09,54.6,M,-34.2,M,0000,0000*65
$GPRMC,213556.000,A,4054.8715,N,07354.1597,W,1.64,327.15,071220,,,D*79
10.3600,1001.5134,47.0008,34.2021

$GPGGA,213604.000,4054.8746,N,07354.1622,W,2,05,1.75,54.0,M,-34.2,M,0000,0000*6A
$GPRMC,213604.000,A,4054.8746,N,07354.1622,W,1.63,327.50,071220,,,D*70
10.1400,1001.4684,47.3787,34.7305

$GPGGA,213612.000,4054.8772,N,07354.1641,W,6,01,99.99,53.5,M,-34.2,M,0000,0000*5E
$GPRMC,213612.000,V,,,,,1.54,329.70,071220,,,E*4A
10.2500,1001.0643,50.7807,34.9824

$GPGGA,213620.000,,,,,0,01,,,M,,M,0000,0000*7D
$GPRMC,213620.000,V,,,,,1.12,334.69,071220,,,N*46
10.3700,1001.1556,50.0112,35.4326

$GPGGA,213628.000,,,,,0,01,,,M,,M,0000,0000*75
$GPRMC,213628.000,V,,,,,0.06,22.72,071220,,,N*74
10.5800,1001.0829,50.6230,42.2881

$GPGGA,213636.000,,,,,0,01,,,M,,M,0000,0000*7A
$GPRMC,213636.000,V,,,,,0.02,47.98,071220,,,N*78
11.0000,1001.0850,50.6059,56.3574

$GPGGA,213644.000,,,,,0,00,,,M,,M,0000,0000*7E
$GPRMC,213644.000,V,,,,,0.00,48.68,071220,,,N*7F
11.3100,1001.1719,49.8747,58.8105
